$GPGGA,175636.00,3737.5875922,N,12225.5447063,W,1,16,1.1,42.18,M,-32.65,M,,*6E
$GPRMC,175636.00,A,3737.588,N,12225.545,W,0.0,173.7,040920,,,A*52
$GPGGA,175636.10,3737.5875922,N,12225.5447063,W,1,16,1.1,42.18,M,-32.65,M,,*6F
$GPRMC,175636.10,A,3737.588,N,12225.545,W,0.0,173.7,040920,,,A*51
$GPGGA,175636.20,3737.5875922,N,12225.5447063,W,1,16,1.1,42.18,M,-32.65,M,,*6C
$GPRMC,175636.20,A,3737.588,N,12225.545,W,0.0,173.7,040920,,,A*54
$GPGGA,175636.30,3737.5875922,N,12225.5447063,W,1,16,1.1,42.18,M,-32.65,M,,*6D
$GPRMC,175636.30,A,3737.588,N,12225.545,W,0.0,173.7,040920,,,A*53
$GPGGA,175636.40,3737.5875922,N,12225.5447063,W,1,16,1.1,42.18,M,-32.65,M,,*6A
$GPRMC,175636.40,A,3737.588,N,12225.545,W,0.0,173.7,040920,,,A*56
$GPGGA,175636.50,3737.5875922,N,12225.5447063,W,1,16,1.1,42.18,M,-32.65,M,,*6B
$GPRMC,175636.50,A,3737.588,N,12225.545,W,0.0,173.7,040920,,,A*55
$GPGGA,175636.60,3737.5875922,N,12225.5447063,W,1,16,1.1,42.18,M,-32.65,M,,*68
$GPRMC,175636.60,A,3737.588,N,12225.545,W,0.0,173.7,040920,,,A*2F
$GPGGA,175636.70,3737.5875922,N,12225.5447063,W,1,16,1.1,42.18,M,-32.65,M,,*69
$GPRMC,175636.70,A,3737.588,N,12225.545,W,0.0,173.7,040920,,,A*2E
$GPGGA,175636.80,3737.5875922,N,12225.5447063,W,1,16,1.1,42.18,M,-32.65,M,,*66
$GPRMC,175636.80,A,3737.588,N,12225.545,W,0.0,173.7,040920,,,A*21
$GPGGA,175636.90,3737.5875922,N,12225.5447063,W,1,16,1.1,42.18,M,-32.65,M,,*67
$GPRMC,175636.90,A,3737.588,N,12225.545,W,0.0,173.7,040920,,,A*20
$GPGGA,175637.00,3737.5875922,N,12225.5447063,W,1,16,1.1,42.18,M,-32.65,M,,*6F
$GPRMC,175637.00,A,3737.588,N,12225.545,W,0.0,173.7,040920,,,A*51
$GPGGA,175637.10,3737.5875922,N,12225.5447063,W,1,16,1.1,42.18,M,-32.65,M,,*6E
$GPRMC,175637.10,A,3737.588,N,12225.545,W,0.0,173.7,040920,,,A*52
$GPGGA,175637.20,3737.5875922,N,12225.5447063,W,1,16,1.1,42.18,M,-32.65,M,,*6D
$GPRMC,175637.20,A,3737.588,N,12225.545,W,0.0,173.7,040920,,,A*53
$GPGGA,175637.30,3737.5875922,N,12225.5447063,W,1,16,1.1,42.18,M,-32.65,M,,*6C
$GPRMC,175637.30,A,3737.588,N,12225.545,W,0.0,173.7,040920,,,A*54
$GPGGA,175637.40,3737.5875922,N,12225.5447063,W,1,16,1.1,42.18,M,-32.65,M,,*6B
$GPRMC,175637.40,A,3737.588,N,12225.545,W,0.0,173.7,040920,,,A*55
$GPGGA,175637.50,3737.5875922,N,12225.5447063,W,1,16,1.1,42.18,M,-32.65,M,,*6A
$GPRMC,175637.50,A,3737.588,N,12225.545,W,0.0,173.7,040920,,,A*56
$GPGGA,175637.60,3737.5875922,N,12225.5447063,W,1,16,1.1,42.18,M,-32.65,M,,*69
$GPRMC,175637.60,A,3737.588,N,12225.545,W,0.0,173.7,040920,,,A*2E
$GPGGA,175637.70,3737.5875922,N,12225.5447063,W,1,16,1.1,42.18,M,-32.65,M,,*68
$GPRMC,175637.70,A,3737.588,N,12225.545,W,0.0,173.7,040920,,,A*2F
$GPGGA,175637.80,3737.5875922,N,12225.5447063,W,1,16,1.1,42.18,M,-32.65,M,,*67
$GPRMC,175637.80,A,3737.588,N,12225.545,W,0.0,173.7,040920,,,A*20
$GPGGA,175637.90,3737.5875922,N,12225.5447063,W,1,16,1.1,42.18,M,-32.65,M,,*66
$GPRMC,175637.90,A,3737.588,N,12225.545,W,0.0,173.7,040920,,,A*21
$GPGGA,175638.00,3737.5875922,N,12225.5447063,W,1,16,1.1,42.18,M,-32.65,M,,*60
$GPRMC,175638.00,A,3737.588,N,12225.545,W,0.0,173.7,040920,,,A*27
$GPGGA,175638.10,3737.5875922,N,12225.5447063,W,1,16,1.1,42.18,M,-32.65,M,,*61
$GPRMC,175638.10,A,3737.588,N,12225.545,W,0.0,173.7,040920,,,A*26
$GPGGA,175638.20,3737.5875922,N,12225.5447063,W,1,16,1.1,42.18,M,-32.65,M,,*62
$GPRMC,175638.20,A,3737.588,N,12225.545,W,0.0,173.7,040920,,,A*25
$GPGGA,175638.30,3737.5875922,N,12225.5447063,W,1,16,1.1,42.18,M,-32.65,M,,*63
$GPRMC,175638.30,A,3737.588,N,12225.545,W,0.0,173.7,040920,,,A*24
$GPGGA,175638.40,3737.5875922,N,12225.5447063,W,1,16,1.1,42.18,M,-32.65,M,,*64
$GPRMC,175638.40,A,3737.588,N,12225.545,W,0.0,173.7,040920,,,A*23
$GPGGA,175638.50,3737.5875922,N,12225.5447063,W,1,16,1.1,42.18,M,-32.65,M,,*65
$GPRMC,175638.50,A,3737.588,N,12225.545,W,0.0,173.7,040920,,,A*22
$GPGGA,175638.60,3737.5875922,N,12225.5447063,W,1,16,1.1,42.18,M,-32.65,M,,*66
$GPRMC,175638.60,A,3737.588,N,12225.545,W,0.0,173.7,040920,,,A*21
$GPGGA,175638.70,3737.5875922,N,12225.5447063,W,1,16,1.1,42.18,M,-32.65,M,,*67
$GPRMC,175638.70,A,3737.588,N,12225.545,W,0.0,173.7,040920,,,A*20
$GPGGA,175638.80,3737.5875922,N,12225.5447063,W,1,16,1.1,42.18,M,-32.65,M,,*68
$GPRMC,175638.80,A,3737.588,N,12225.545,W,0.0,173.7,040920,,,A*2F
$GPGGA,175638.90,3737.5875922,N,12225.5447063,W,1,16,1.1,42.18,M,-32.65,M,,*69
$GPRMC,175638.90,A,3737.588,N,12225.545,W,0.0,173.7,040920,,,A*2E
$GPGGA,175639.00,3737.5875922,N,12225.5447063,W,1,16,1.1,42.18,M,-32.65,M,,*61
$GPRMC,175639.00,A,3737.588,N,12225.545,W,0.0,173.7,040920,,,A*26
$GPGGA,175639.10,3737.5875922,N,12225.5447063,W,1,16,1.1,42.18,M,-32.65,M,,*60
$GPRMC,175639.10,A,3737.588,N,12225.545,W,0.0,173.7,040920,,,A*27
$GPGGA,175639.20,3737.5875922,N,12225.5447063,W,1,16,1.1,42.18,M,-32.65,M,,*63
$GPRMC,175639.20,A,3737.588,N,12225.545,W,0.0,173.7,040920,,,A*24
$GPGGA,175639.30,3737.5875922,N,12225.5447063,W,1,16,1.1,42.18,M,-32.65,M,,*62
$GPRMC,175639.30,A,3737.588,N,12225.545,W,0.0,173.7,040920,,,A*25
$GPGGA,175639.40,3737.5875922,N,12225.5447063,W,1,16,1.1,42.18,M,-32.65,M,,*65
$GPRMC,175639.40,A,3737.588,N,12225.545,W,0.0,173.7,040920,,,A*22
$GPGGA,175639.50,3737.5875922,N,12225.5447063,W,1,16,1.1,42.18,M,-32.65,M,,*64
$GPRMC,175639.50,A,3737.588,N,12225.545,W,0.0,173.7,040920,,,A*23
$GPGGA,175639.60,3737.5875922,N,12225.5447063,W,1,16,1.1,42.18,M,-32.65,M,,*67
$GPRMC,175639.60,A,3737.588,N,12225.545,W,0.0,173.7,040920,,,A*20
$GPGGA,175639.70,3737.5875922,N,12225.5447063,W,1,16,1.1,42.18,M,-32.65,M,,*66
$GPRMC,175639.70,A,3737.588,N,12225.545,W,0.0,173.7,040920,,,A*21
$GPGGA,175639.80,3737.5875923,N,12225.5447063,W,1,16,1.1,42.18,M,-32.65,M,,*68
$GPRMC,175639.80,A,3737.588,N,12225.545,W,0.0,173.7,040920,,,A*2E
$GPGGA,175639.90,3737.5875923,N,12225.5447063,W,1,16,1.1,42.18,M,-32.65,M,,*69
$GPRMC,175639.90,A,3737.588,N,12225.545,W,0.0,173.7,040920,,,A*2F
$GPGGA,175640.00,3737.5875924,N,12225.5447062,W,1,16,1.1,42.19,M,-32.65,M,,*69
$GPRMC,175640.00,A,3737.588,N,12225.545,W,0.0,173.7,040920,,,A*28
$GPGGA,175640.10,3737.5875924,N,12225.5447062,W,1,16,1.1,42.19,M,-32.65,M,,*68
$GPRMC,175640.10,A,3737.588,N,12225.545,W,0.0,173.7,040920,,,A*29
$GPGGA,175640.20,3737.5875924,N,12225.5447063,W,1,16,1.1,42.18,M,-32.65,M,,*6B
$GPRMC,175640.20,A,3737.588,N,12225.545,W,0.0,173.7,040920,,,A*53
$GPGGA,175640.30,3737.5875924,N,12225.5447062,W,1,16,1.1,42.18,M,-32.65,M,,*6B
$GPRMC,175640.30,A,3737.588,N,12225.545,W,0.0,173.7,040920,,,A*52
$GPGGA,175640.40,3737.5875924,N,12225.5447062,W,1,16,1.1,42.18,M,-32.65,M,,*6C
$GPRMC,175640.40,A,3737.588,N,12225.545,W,0.0,173.7,040920,,,A*53
$GPGGA,175640.50,3737.5875924,N,12225.5447062,W,1,16,1.1,42.18,M,-32.65,M,,*6D
$GPRMC,175640.50,A,3737.588,N,12225.545,W,0.0,173.7,040920,,,A*54
$GPGGA,175640.60,3737.5875924,N,12225.5447062,W,1,16,1.1,42.18,M,-32.65,M,,*6E
$GPRMC,175640.60,A,3737.588,N,12225.545,W,0.0,173.7,040920,,,A*55
$GPGGA,175640.70,3737.5875923,N,12225.5447063,W,1,16,1.1,42.18,M,-32.65,M,,*69
$GPRMC,175640.70,A,3737.588,N,12225.545,W,0.0,173.7,040920,,,A*2F
$GPGGA,175640.80,3737.5875924,N,12225.5447062,W,1,16,1.1,42.18,M,-32.65,M,,*60
$GPRMC,175640.80,A,3737.588,N,12225.545,W,0.0,173.7,040920,,,A*20
$GPGGA,175640.90,3737.5875923,N,12225.5447063,W,1,16,1.1,42.18,M,-32.65,M,,*67
$GPRMC,175640.90,A,3737.588,N,12225.545,W,0.0,173.7,040920,,,A*21
$GPGGA,175641.00,3737.5875923,N,12225.5447063,W,1,16,1.1,42.18,M,-32.65,M,,*6F
$GPRMC,175641.00,A,3737.588,N,12225.545,W,0.0,173.7,040920,,,A*50
$GPGGA,175641.10,3737.5875923,N,12225.5447062,W,1,16,1.1,42.18,M,-32.65,M,,*6F
$GPRMC,175641.10,A,3737.588,N,12225.545,W,0.0,173.7,040920,,,A*51
$GPGGA,175641.20,3737.5875923,N,12225.5447062,W,1,16,1.1,42.18,M,-32.65,M,,*6C
$GPRMC,175641.20,A,3737.588,N,12225.545,W,0.0,173.7,040920,,,A*54
$GPGGA,175641.30,3737.5875923,N,12225.5447062,W,1,16,1.1,42.18,M,-32.65,M,,*6D
$GPRMC,175641.30,A,3737.588,N,12225.545,W,0.0,173.7,040920,,,A*53
$GPGGA,175641.40,3737.5875923,N,12225.5447063,W,1,16,1.1,42.18,M,-32.65,M,,*6B
$GPRMC,175641.40,A,3737.588,N,12225.545,W,0.0,173.7,040920,,,A*54
$GPGGA,175641.50,3737.5875924,N,12225.5447063,W,1,16,1.1,42.19,M,-32.65,M,,*6C
$GPRMC,175641.50,A,3737.588,N,12225.545,W,0.0,173.7,040920,,,A*53
$GPGGA,175641.60,3737.5875923,N,12225.5447063,W,1,16,1.1,42.18,M,-32.65,M,,*69
$GPRMC,175641.60,A,3737.588,N,12225.545,W,0.0,173.7,040920,,,A*2F
$GPGGA,175641.70,3737.5875922,N,12225.5447063,W,1,16,1.1,42.18,M,-32.65,M,,*69
$GPRMC,175641.70,A,3737.588,N,12225.545,W,0.0,173.7,040920,,,A*2E
$GPGGA,175641.80,3737.5875922,N,12225.5447063,W,1,16,1.1,42.18,M,-32.65,M,,*66
$GPRMC,175641.80,A,3737.588,N,12225.545,W,0.0,173.7,040920,,,A*21
$GPGGA,175641.90,3737.5875922,N,12225.5447063,W,1,16,1.1,42.18,M,-32.65,M,,*67
$GPRMC,175641.90,A,3737.588,N,12225.545,W,0.0,173.7,040920,,,A*20
$GPGGA,175642.00,3737.5875922,N,12225.5447063,W,1,16,1.1,42.18,M,-32.65,M,,*6D
$GPRMC,175642.00,A,3737.588,N,12225.545,W,0.0,173.7,040920,,,A*53
$GPGGA,175642.10,3737.5875922,N,12225.5447063,W,1,16,1.1,42.18,M,-32.65,M,,*6C
$GPRMC,175642.10,A,3737.588,N,12225.545,W,0.0,173.7,040920,,,A*54
$GPGGA,175642.20,3737.5875922,N,12225.5447063,W,1,16,1.1,42.18,M,-32.65,M,,*6F
$GPRMC,175642.20,A,3737.588,N,12225.545,W,0.0,173.7,040920,,,A*51
$GPGGA,175642.30,3737.5875922,N,12225.5447063,W,1,16,1.1,42.18,M,-32.65,M,,*6E
$GPRMC,175642.30,A,3737.588,N,12225.545,W,0.0,173.7,040920,,,A*52
$GPGGA,175642.40,3737.5875922,N,12225.5447063,W,1,16,1.1,42.18,M,-32.65,M,,*69
$GPRMC,175642.40,A,3737.588,N,12225.545,W,0.0,173.7,040920,,,A*2E
$GPGGA,175642.50,3737.5875922,N,12225.5447063,W,1,16,1.1,42.18,M,-32.65,M,,*68
$GPRMC,175642.50,A,3737.588,N,12225.545,W,0.0,173.7,040920,,,A*2F
$GPGGA,175642.60,3737.5875922,N,12225.5447063,W,1,16,1.1,42.18,M,-32.65,M,,*6B
$GPRMC,175642.60,A,3737.588,N,12225.545,W,0.0,173.7,040920,,,A*55
$GPGGA,175642.70,3737.5875922,N,12225.5447063,W,1,16,1.1,42.18,M,-32.65,M,,*6A
$GPRMC,175642.70,A,3737.588,N,12225.545,W,0.0,173.7,040920,,,A*56
$GPGGA,175642.80,3737.5875922,N,12225.5447063,W,1,16,1.1,42.18,M,-32.65,M,,*65
$GPRMC,175642.80,A,3737.588,N,12225.545,W,0.0,173.7,040920,,,A*22
$GPGGA,175642.90,3737.5875922,N,12225.5447063,W,1,16,1.1,42.18,M,-32.65,M,,*64
$GPRMC,175642.90,A,3737.588,N,12225.545,W,0.0,173.7,040920,,,A*23
$GPGGA,175643.00,3737.5875922,N,12225.5447063,W,1,16,1.1,42.18,M,-32.65,M,,*6C
$GPRMC,175643.00,A,3737.588,N,12225.545,W,0.0,173.7,040920,,,A*54
$GPGGA,175643.10,3737.5875922,N,12225.5447063,W,1,16,1.1,42.18,M,-32.65,M,,*6D
$GPRMC,175643.10,A,3737.588,N,12225.545,W,0.0,173.7,040920,,,A*53
$GPGGA,175643.20,3737.5875922,N,12225.5447062,W,1,16,1.1,42.18,M,-32.65,M,,*6F
$GPRMC,175643.20,A,3737.588,N,12225.545,W,0.0,173.7,040920,,,A*50
$GPGGA,175643.30,3737.5875921,N,12225.5447062,W,1,16,1.1,42.18,M,-32.65,M,,*6D
$GPRMC,175643.30,A,3737.588,N,12225.545,W,0.0,173.7,040920,,,A*51
$GPGGA,175643.40,3737.5875921,N,12225.5447061,W,1,16,1.1,42.18,M,-32.65,M,,*69
$GPRMC,175643.40,A,3737.588,N,12225.545,W,0.0,173.7,040920,,,A*2F
$GPGGA,175643.50,3737.5875921,N,12225.5447060,W,1,16,1.1,42.18,M,-32.65,M,,*69
$GPRMC,175643.50,A,3737.588,N,12225.545,W,0.0,173.7,040920,,,A*2E
$GPGGA,175643.60,3737.5875923,N,12225.5447060,W,1,16,1.1,42.18,M,-32.65,M,,*68
$GPRMC,175643.60,A,3737.588,N,12225.545,W,0.0,173.7,040920,,,A*2D
$GPGGA,175643.70,3737.5875924,N,12225.5447060,W,1,16,1.1,42.18,M,-32.65,M,,*6E
$GPRMC,175643.70,A,3737.588,N,12225.545,W,0.0,173.7,040920,,,A*57
$GPGGA,175643.80,3737.5875925,N,12225.5447061,W,1,16,1.1,42.18,M,-32.65,M,,*61
$GPRMC,175643.80,A,3737.588,N,12225.545,W,0.0,173.7,040920,,,A*23
$GPGGA,175643.90,3737.5875924,N,12225.5447060,W,1,16,1.1,42.18,M,-32.65,M,,*60
$GPRMC,175643.90,A,3737.588,N,12225.545,W,0.0,173.7,040920,,,A*22
$GPGGA,175644.00,3737.5875921,N,12225.5447057,W,1,16,1.1,42.18,M,-32.65,M,,*6F
$GPRMC,175644.00,A,3737.588,N,12225.545,W,0.0,173.7,040920,,,A*55
$GPGGA,175644.10,3737.5875918,N,12225.5447057,W,1,16,1.1,42.18,M,-32.65,M,,*64
$GPRMC,175644.10,A,3737.588,N,12225.545,W,0.0,173.7,040920,,,A*2D
$GPGGA,175644.20,3737.5875916,N,12225.5447053,W,1,16,1.1,42.18,M,-32.65,M,,*6D
$GPRMC,175644.20,A,3737.588,N,12225.545,W,0.0,173.7,040920,,,A*57
$GPGGA,175644.30,3737.5875918,N,12225.5447047,W,1,16,1.1,42.18,M,-32.65,M,,*67
$GPRMC,175644.30,A,3737.588,N,12225.545,W,0.0,173.7,040920,,,A*2F
$GPGGA,175644.40,3737.5875921,N,12225.5447046,W,1,16,1.1,42.18,M,-32.65,M,,*6B
$GPRMC,175644.40,A,3737.588,N,12225.545,W,0.0,173.7,040920,,,A*51
$GPGGA,175644.50,3737.5875925,N,12225.5447046,W,1,16,1.1,42.18,M,-32.65,M,,*6E
$GPRMC,175644.50,A,3737.588,N,12225.545,W,0.0,173.7,040920,,,A*52
$GPGGA,175644.60,3737.5875926,N,12225.5447045,W,1,16,1.1,42.18,M,-32.65,M,,*6D
$GPRMC,175644.60,A,3737.588,N,12225.545,W,0.0,173.7,040920,,,A*53
$GPGGA,175644.70,3737.5875925,N,12225.5447044,W,1,16,1.1,42.18,M,-32.65,M,,*6E
$GPRMC,175644.70,A,3737.588,N,12225.545,W,0.0,173.7,040920,,,A*50
$GPGGA,175644.80,3737.5875922,N,12225.5447047,W,1,16,1.1,42.18,M,-32.65,M,,*65
$GPRMC,175644.80,A,3737.588,N,12225.545,W,0.0,173.7,040920,,,A*24
$GPGGA,175644.90,3737.5875920,N,12225.5447047,W,1,16,1.1,42.18,M,-32.65,M,,*66
$GPRMC,175644.90,A,3737.588,N,12225.545,W,0.0,173.7,040920,,,A*25
$GPGGA,175645.00,3737.5875920,N,12225.5447043,W,1,16,1.1,42.18,M,-32.65,M,,*6A
$GPRMC,175645.00,A,3737.588,N,12225.545,W,0.0,173.7,040920,,,A*56
$GPGGA,175645.10,3737.5875920,N,12225.5447044,W,1,16,1.1,42.18,M,-32.65,M,,*6C
$GPRMC,175645.10,A,3737.588,N,12225.545,W,0.0,173.7,040920,,,A*53
$GPGGA,175645.20,3737.5875921,N,12225.5447047,W,1,16,1.1,42.18,M,-32.65,M,,*6D
$GPRMC,175645.20,A,3737.588,N,12225.545,W,0.0,173.7,040920,,,A*56
$GPGGA,175645.30,3737.5875921,N,12225.5447052,W,1,16,1.1,42.18,M,-32.65,M,,*68
$GPRMC,175645.30,A,3737.588,N,12225.545,W,0.0,173.7,040920,,,A*2E
$GPGGA,175645.40,3737.5875922,N,12225.5447057,W,1,16,1.1,42.18,M,-32.65,M,,*69
$GPRMC,175645.40,A,3737.588,N,12225.545,W,0.0,173.7,040920,,,A*29
$GPGGA,175645.50,3737.5875922,N,12225.5447063,W,1,16,1.1,42.18,M,-32.65,M,,*6F
$GPRMC,175645.50,A,3737.588,N,12225.545,W,0.0,173.7,040920,,,A*51
$GPGGA,175645.60,3737.5875923,N,12225.5447067,W,1,16,1.1,42.18,M,-32.65,M,,*69
$GPRMC,175645.60,A,3737.588,N,12225.545,W,0.0,173.7,040920,,,A*2B
$GPGGA,175645.70,3737.5875924,N,12225.5447048,W,1,16,1.1,42.18,M,-32.65,M,,*62
$GPRMC,175645.70,A,3737.588,N,12225.545,W,0.0,173.7,040920,,,A*2A
$GPGGA,175645.80,3737.5875925,N,12225.5447032,W,1,16,1.1,42.18,M,-32.65,M,,*61
$GPRMC,175645.80,A,3737.588,N,12225.545,W,0.0,173.7,040920,,,A*25
$GPGGA,175645.90,3737.5875923,N,12225.5447034,W,1,16,1.1,42.18,M,-32.65,M,,*60
$GPRMC,175645.90,A,3737.588,N,12225.545,W,0.0,173.7,040920,,,A*24
$GPGGA,175646.00,3737.5875922,N,12225.5447040,W,1,16,1.1,42.18,M,-32.65,M,,*68
$GPRMC,175646.00,A,3737.588,N,12225.545,W,0.0,173.7,040920,,,A*2E
$GPGGA,175646.10,3737.5875923,N,12225.5447042,W,1,16,1.1,42.18,M,-32.65,M,,*6A
$GPRMC,175646.10,A,3737.588,N,12225.545,W,0.0,173.7,040920,,,A*54
$GPGGA,175646.20,3737.5875924,N,12225.5447037,W,1,16,1.1,42.18,M,-32.65,M,,*6C
$GPRMC,175646.20,A,3737.588,N,12225.545,W,0.0,173.7,040920,,,A*53
$GPGGA,175646.30,3737.5875924,N,12225.5447035,W,1,16,1.1,42.18,M,-32.65,M,,*6F
$GPRMC,175646.30,A,3737.588,N,12225.545,W,0.0,173.7,040920,,,A*54
$GPGGA,175646.40,3737.5875923,N,12225.5447040,W,1,16,1.1,42.18,M,-32.65,M,,*6D
$GPRMC,175646.40,A,3737.588,N,12225.545,W,0.0,173.7,040920,,,A*53
$GPGGA,175646.50,3737.5875924,N,12225.5447041,W,1,16,1.1,42.18,M,-32.65,M,,*6A
$GPRMC,175646.50,A,3737.588,N,12225.545,W,0.0,173.7,040920,,,A*50
$GPGGA,175646.60,3737.5875925,N,12225.5447038,W,1,16,1.1,42.18,M,-32.65,M,,*66
$GPRMC,175646.60,A,3737.588,N,12225.545,W,0.0,173.7,040920,,,A*28
$GPGGA,175646.70,3737.5875924,N,12225.5447037,W,1,16,1.1,42.18,M,-32.65,M,,*69
$GPRMC,175646.70,A,3737.588,N,12225.545,W,0.0,173.7,040920,,,A*29
$GPGGA,175646.80,3737.5875924,N,12225.5447039,W,1,16,1.1,42.18,M,-32.65,M,,*68
$GPRMC,175646.80,A,3737.588,N,12225.545,W,0.0,173.7,040920,,,A*26
$GPGGA,175646.90,3737.5875925,N,12225.5447041,W,1,16,1.1,42.18,M,-32.65,M,,*67
$GPRMC,175646.90,A,3737.588,N,12225.545,W,0.0,173.7,040920,,,A*27
$GPGGA,175647.00,3737.5875926,N,12225.5447040,W,1,16,1.1,42.18,M,-32.65,M,,*6D
$GPRMC,175647.00,A,3737.588,N,12225.545,W,0.0,173.7,040920,,,A*56
$GPGGA,175647.10,3737.5875925,N,12225.5447038,W,1,16,1.1,42.18,M,-32.65,M,,*60
$GPRMC,175647.10,A,3737.588,N,12225.545,W,0.0,173.7,040920,,,A*2E
$GPGGA,175647.20,3737.5875925,N,12225.5447040,W,1,16,1.1,42.18,M,-32.65,M,,*6C
$GPRMC,175647.20,A,3737.588,N,12225.545,W,0.0,173.7,040920,,,A*52
$GPGGA,175647.30,3737.5875927,N,12225.5447041,W,1,16,1.1,42.18,M,-32.65,M,,*6E
$GPRMC,175647.30,A,3737.588,N,12225.545,W,0.0,173.7,040920,,,A*57
$GPGGA,175647.40,3737.5875928,N,12225.5447040,W,1,16,1.1,42.18,M,-32.65,M,,*67
$GPRMC,175647.40,A,3737.588,N,12225.545,W,0.0,173.7,040920,,,A*2B
$GPGGA,175647.50,3737.5875927,N,12225.5447039,W,1,16,1.1,42.18,M,-32.65,M,,*67
$GPRMC,175647.50,A,3737.588,N,12225.545,W,0.0,173.7,040920,,,A*2A
$GPGGA,175647.60,3737.5875927,N,12225.5447040,W,1,16,1.1,42.18,M,-32.65,M,,*6A
$GPRMC,175647.60,A,3737.588,N,12225.545,W,0.0,173.7,040920,,,A*52
$GPGGA,175647.70,3737.5875928,N,12225.5447042,W,1,16,1.1,42.18,M,-32.65,M,,*66
$GPRMC,175647.70,A,3737.588,N,12225.545,W,0.0,173.7,040920,,,A*28
$GPGGA,175647.80,3737.5875928,N,12225.5447041,W,1,16,1.1,42.18,M,-32.65,M,,*6A
$GPRMC,175647.80,A,3737.588,N,12225.545,W,0.0,173.7,040920,,,A*5C
$GPGGA,175647.90,3737.5875928,N,12225.5447040,W,1,16,1.1,42.18,M,-32.65,M,,*6A
$GPRMC,175647.90,A,3737.588,N,12225.545,W,0.0,173.7,040920,,,A*5D
$GPGGA,175648.00,3737.5875929,N,12225.5447040,W,1,16,1.1,42.18,M,-32.65,M,,*6D
$GPRMC,175648.00,A,3737.588,N,12225.545,W,0.0,173.7,040920,,,A*59
$GPGGA,175648.10,3737.5875931,N,12225.5447043,W,1,16,1.1,42.18,M,-32.65,M,,*66
$GPRMC,175648.10,A,3737.588,N,12225.545,W,0.0,173.7,040920,,,A*21
$GPGGA,175648.20,3737.5875931,N,12225.5447044,W,1,16,1.1,42.18,M,-32.65,M,,*62
$GPRMC,175648.20,A,3737.588,N,12225.545,W,0.0,173.7,040920,,,A*22
$GPGGA,175648.30,3737.5875930,N,12225.5447042,W,1,16,1.1,42.18,M,-32.65,M,,*64
$GPRMC,175648.30,A,3737.588,N,12225.545,W,0.0,173.7,040920,,,A*23
$GPGGA,175648.40,3737.5875930,N,12225.5447041,W,1,16,1.1,42.18,M,-32.65,M,,*60
$GPRMC,175648.40,A,3737.588,N,12225.545,W,0.0,173.7,040920,,,A*24
$GPGGA,175648.50,3737.5875932,N,12225.5447043,W,1,16,1.1,42.18,M,-32.65,M,,*61
$GPRMC,175648.50,A,3737.588,N,12225.545,W,0.0,173.7,040920,,,A*25
$GPGGA,175648.60,3737.5875933,N,12225.5447045,W,1,16,1.1,42.18,M,-32.65,M,,*65
$GPRMC,175648.60,A,3737.588,N,12225.545,W,0.0,173.7,040920,,,A*26
$GPGGA,175648.70,3737.5875933,N,12225.5447045,W,1,16,1.1,42.18,M,-32.65,M,,*64
$GPRMC,175648.70,A,3737.588,N,12225.545,W,0.0,173.7,040920,,,A*27
$GPGGA,175648.80,3737.5875934,N,12225.5447044,W,1,16,1.1,42.18,M,-32.65,M,,*6D
$GPRMC,175648.80,A,3737.588,N,12225.545,W,0.0,173.7,040920,,,A*51
$GPGGA,175648.90,3737.5875935,N,12225.5447045,W,1,16,1.1,42.18,M,-32.65,M,,*6C
$GPRMC,175648.90,A,3737.588,N,12225.545,W,0.0,173.7,040920,,,A*56
$GPGGA,175649.00,3737.5875936,N,12225.5447047,W,1,16,1.1,42.18,M,-32.65,M,,*65
$GPRMC,175649.00,A,3737.588,N,12225.545,W,0.0,173.7,040920,,,A*21
$GPGGA,175649.10,3737.5875936,N,12225.5447046,W,1,16,1.1,42.18,M,-32.65,M,,*65
$GPRMC,175649.10,A,3737.588,N,12225.545,W,0.0,173.7,040920,,,A*20
$GPGGA,175649.20,3737.5875936,N,12225.5447046,W,1,16,1.1,42.18,M,-32.65,M,,*66
$GPRMC,175649.20,A,3737.588,N,12225.545,W,0.0,173.7,040920,,,A*23
$GPGGA,175649.30,3737.5875936,N,12225.5447046,W,1,16,1.1,42.18,M,-32.65,M,,*67
$GPRMC,175649.30,A,3737.588,N,12225.545,W,0.0,173.7,040920,,,A*22
$GPGGA,175649.40,3737.5875936,N,12225.5447047,W,1,16,1.1,42.18,M,-32.65,M,,*61
$GPRMC,175649.40,A,3737.588,N,12225.545,W,0.0,173.7,040920,,,A*25
$GPGGA,175649.50,3737.5875936,N,12225.5447047,W,1,16,1.1,42.18,M,-32.65,M,,*60
$GPRMC,175649.50,A,3737.588,N,12225.545,W,0.0,173.7,040920,,,A*24
$GPGGA,175649.60,3737.5875936,N,12225.5447046,W,1,16,1.1,42.18,M,-32.65,M,,*62
$GPRMC,175649.60,A,3737.588,N,12225.545,W,0.0,173.7,040920,,,A*27
$GPGGA,175649.70,3737.5875936,N,12225.5447046,W,1,16,1.1,42.18,M,-32.65,M,,*63
$GPRMC,175649.70,A,3737.588,N,12225.545,W,0.0,173.7,040920,,,A*26
$GPGGA,175649.80,3737.5875936,N,12225.5447047,W,1,16,1.1,42.18,M,-32.65,M,,*6D
$GPRMC,175649.80,A,3737.588,N,12225.545,W,0.0,173.7,040920,,,A*50
$GPGGA,175649.90,3737.5875936,N,12225.5447046,W,1,16,1.1,42.18,M,-32.65,M,,*6D
$GPRMC,175649.90,A,3737.588,N,12225.545,W,0.0,173.7,040920,,,A*51
$GPGGA,175650.00,3737.5875936,N,12225.5447046,W,1,16,1.1,42.18,M,-32.65,M,,*6C
$GPRMC,175650.00,A,3737.588,N,12225.545,W,0.0,173.7,040920,,,A*56
$GPGGA,175650.10,3737.5875937,N,12225.5447047,W,1,16,1.1,42.18,M,-32.65,M,,*6D
$GPRMC,175650.10,A,3737.588,N,12225.545,W,0.0,173.7,040920,,,A*51
$GPGGA,175650.20,3737.5875938,N,12225.5447048,W,1,16,1.1,42.18,M,-32.65,M,,*6E
$GPRMC,175650.20,A,3737.588,N,12225.545,W,0.0,173.7,040920,,,A*50
$GPGGA,175650.30,3737.5875940,N,12225.5447050,W,1,16,1.1,42.18,M,-32.65,M,,*69
$GPRMC,175650.30,A,3737.588,N,12225.545,W,0.0,173.7,040920,,,A*2A
$GPGGA,175650.40,3737.5875942,N,12225.5447051,W,1,16,1.1,42.18,M,-32.65,M,,*6D
$GPRMC,175650.40,A,3737.588,N,12225.545,W,0.0,173.7,040920,,,A*54
$GPGGA,175650.50,3737.5875943,N,12225.5447051,W,1,16,1.1,42.18,M,-32.65,M,,*6D
$GPRMC,175650.50,A,3737.588,N,12225.545,W,0.0,173.7,040920,,,A*55
$GPGGA,175650.60,3737.5875942,N,12225.5447051,W,1,16,1.1,42.18,M,-32.65,M,,*6F
$GPRMC,175650.60,A,3737.588,N,12225.545,W,0.0,173.7,040920,,,A*56
$GPGGA,175650.70,3737.5875943,N,12225.5447052,W,1,16,1.1,42.18,M,-32.65,M,,*6C
$GPRMC,175650.70,A,3737.588,N,12225.545,W,0.0,173.7,040920,,,A*51
$GPGGA,175650.80,3737.5875943,N,12225.5447052,W,1,16,1.1,42.18,M,-32.65,M,,*63
$GPRMC,175650.80,A,3737.588,N,12225.545,W,0.0,173.7,040920,,,A*21
$GPGGA,175650.90,3737.5875944,N,12225.5447049,W,1,16,1.1,42.18,M,-32.65,M,,*6F
$GPRMC,175650.90,A,3737.588,N,12225.545,W,0.0,173.7,040920,,,A*59
$GPGGA,175651.00,3737.5875944,N,12225.5447050,W,1,16,1.1,42.18,M,-32.65,M,,*6F
$GPRMC,175651.00,A,3737.588,N,12225.545,W,0.0,173.7,040920,,,A*51
$GPGGA,175651.10,3737.5875944,N,12225.5447054,W,1,16,1.1,42.18,M,-32.65,M,,*6A
$GPRMC,175651.10,A,3737.588,N,12225.545,W,0.0,173.7,040920,,,A*52
$GPGGA,175651.20,3737.5875945,N,12225.5447055,W,1,16,1.1,42.18,M,-32.65,M,,*69
$GPRMC,175651.20,A,3737.588,N,12225.545,W,0.0,173.7,040920,,,A*2A
$GPGGA,175651.30,3737.5875948,N,12225.5447054,W,1,16,1.1,42.18,M,-32.65,M,,*64
$GPRMC,175651.30,A,3737.588,N,12225.545,W,0.0,173.7,040920,,,A*2B
$GPGGA,175651.40,3737.5875952,N,12225.5447055,W,1,16,1.1,42.18,M,-32.65,M,,*69
$GPRMC,175651.40,A,3737.588,N,12225.545,W,0.0,173.7,040920,,,A*2C
$GPGGA,175651.50,3737.5875956,N,12225.5447056,W,1,16,1.1,42.18,M,-32.65,M,,*6F
$GPRMC,175651.50,A,3737.588,N,12225.545,W,0.0,173.7,040920,,,A*54
$GPGGA,175651.60,3737.5875955,N,12225.5447059,W,1,16,1.1,42.18,M,-32.65,M,,*60
$GPRMC,175651.60,A,3737.588,N,12225.545,W,0.0,173.7,040920,,,A*2E
$GPGGA,175651.70,3737.5875955,N,12225.5447060,W,1,16,1.1,42.18,M,-32.65,M,,*6B
$GPRMC,175651.70,A,3737.588,N,12225.545,W,0.0,173.7,040920,,,A*56
$GPGGA,175651.80,3737.5875958,N,12225.5447060,W,1,16,1.1,42.18,M,-32.65,M,,*69
$GPRMC,175651.80,A,3737.588,N,12225.545,W,0.0,173.7,040920,,,A*20
$GPGGA,175651.90,3737.5875961,N,12225.5447061,W,1,16,1.1,42.18,M,-32.65,M,,*63
$GPRMC,175651.90,A,3737.588,N,12225.545,W,0.0,173.7,040920,,,A*21
$GPGGA,175652.00,3737.5875961,N,12225.5447063,W,1,16,1.1,42.18,M,-32.65,M,,*6B
$GPRMC,175652.00,A,3737.588,N,12225.545,W,0.0,173.7,040920,,,A*52
$GPGGA,175652.10,3737.5875957,N,12225.5447066,W,1,16,1.1,42.19,M,-32.65,M,,*6B
$GPRMC,175652.10,A,3737.588,N,12225.545,W,0.0,173.7,040920,,,A*53
$GPGGA,175652.20,3737.5875941,N,12225.5447067,W,1,16,1.1,42.19,M,-32.65,M,,*6E
$GPRMC,175652.20,A,3737.588,N,12225.545,W,0.1,173.7,040920,,,A*53
$GPGGA,175652.30,3737.5875891,N,12225.5447066,W,1,16,1.1,42.19,M,-32.65,M,,*62
$GPRMC,175652.30,A,3737.588,N,12225.545,W,0.3,173.7,040920,,,A*2B
$GPGGA,175652.40,3737.5875789,N,12225.5447062,W,1,16,1.1,42.19,M,-32.65,M,,*67
$GPRMC,175652.40,A,3737.588,N,12225.545,W,0.5,173.7,040920,,,A*2A
$GPGGA,175652.50,3737.5875638,N,12225.5447054,W,1,16,1.1,42.19,M,-32.65,M,,*68
$GPRMC,175652.50,A,3737.588,N,12225.545,W,0.6,173.8,040920,,,A*27
$GPGGA,175652.60,3737.5875425,N,12225.5447042,W,1,16,1.1,42.19,M,-32.65,M,,*62
$GPRMC,175652.60,A,3737.588,N,12225.545,W,1.0,173.9,040920,,,A*22
$GPGGA,175652.70,3737.5875109,N,12225.5447023,W,1,16,1.1,42.20,M,-32.65,M,,*65
$GPRMC,175652.70,A,3737.588,N,12225.545,W,1.4,174.0,040920,,,A*29
$GPGGA,175652.80,3737.5874669,N,12225.5446993,W,1,16,1.1,42.20,M,-32.65,M,,*69
$GPRMC,175652.80,A,3737.587,N,12225.545,W,1.9,174.1,040920,,,A*25
$GPGGA,175652.90,3737.5874086,N,12225.5446952,W,1,16,1.1,42.21,M,-32.65,M,,*63
$GPRMC,175652.90,A,3737.587,N,12225.545,W,2.4,174.2,040920,,,A*29
$GPGGA,175653.00,3737.5873351,N,12225.5446899,W,1,16,1.1,42.21,M,-32.65,M,,*63
$GPRMC,175653.00,A,3737.587,N,12225.545,W,2.9,174.4,040920,,,A*2A
$GPGGA,175653.10,3737.5872464,N,12225.5446832,W,1,16,1.1,42.22,M,-32.65,M,,*60
$GPRMC,175653.10,A,3737.587,N,12225.545,W,3.5,174.5,040920,,,A*27
$GPGGA,175653.20,3737.5871409,N,12225.5446746,W,1,16,1.1,42.22,M,-32.65,M,,*67
$GPRMC,175653.20,A,3737.587,N,12225.545,W,4.2,174.6,040920,,,A*27
$GPGGA,175653.30,3737.5870165,N,12225.5446624,W,1,16,1.1,42.23,M,-32.65,M,,*6C
$GPRMC,175653.30,A,3737.587,N,12225.545,W,4.9,174.6,040920,,,A*52
$GPGGA,175653.40,3737.5868714,N,12225.5446456,W,1,16,1.1,42.24,M,-32.65,M,,*62
$GPRMC,175653.40,A,3737.587,N,12225.545,W,5.7,174.5,040920,,,A*26
$GPGGA,175653.50,3737.5867041,N,12225.5446244,W,1,16,1.1,42.25,M,-32.65,M,,*6F
$GPRMC,175653.50,A,3737.587,N,12225.545,W,6.5,174.5,040920,,,A*5F
$GPGGA,175653.60,3737.5865136,N,12225.5445997,W,1,16,1.1,42.26,M,-32.65,M,,*6A
$GPRMC,175653.60,A,3737.587,N,12225.545,W,7.3,174.5,040920,,,A*59
$GPGGA,175653.70,3737.5863001,N,12225.5445737,W,1,16,1.1,42.27,M,-32.65,M,,*6D
$GPRMC,175653.70,A,3737.586,N,12225.545,W,8.1,174.5,040920,,,A*56
$GPGGA,175653.80,3737.5860648,N,12225.5445476,W,1,16,1.1,42.28,M,-32.65,M,,*63
$GPRMC,175653.80,A,3737.586,N,12225.545,W,8.9,174.5,040920,,,A*28
$GPGGA,175653.90,3737.5858089,N,12225.5445186,W,1,16,1.1,42.30,M,-32.65,M,,*61
$GPRMC,175653.90,A,3737.586,N,12225.545,W,9.6,174.4,040920,,,A*26
$GPGGA,175654.00,3737.5855339,N,12225.5444828,W,1,16,1.1,42.31,M,-32.65,M,,*67
$GPRMC,175654.00,A,3737.586,N,12225.544,W,10.2,174.3,040920,,,A*12
$GPGGA,175654.10,3737.5852422,N,12225.5444404,W,1,17,1.1,42.33,M,-32.65,M,,*6D
$GPRMC,175654.10,A,3737.585,N,12225.544,W,10.8,174.0,040920,,,A*60
$GPGGA,175654.20,3737.5849382,N,12225.5443929,W,1,17,1.1,42.34,M,-32.65,M,,*6B
$GPRMC,175654.20,A,3737.585,N,12225.544,W,11.1,173.8,040920,,,A*64
$GPGGA,175654.30,3737.5846265,N,12225.5443423,W,1,17,1.1,42.34,M,-32.65,M,,*6A
$GPRMC,175654.30,A,3737.585,N,12225.544,W,11.3,173.5,040920,,,A*68
$GPGGA,175654.40,3737.5843094,N,12225.5442902,W,1,17,1.0,42.35,M,-32.65,M,,*6B
$GPRMC,175654.40,A,3737.584,N,12225.544,W,11.5,173.2,040920,,,A*6D
$GPGGA,175654.50,3737.5839874,N,12225.5442355,W,1,17,1.0,42.36,M,-32.65,M,,*6A
$GPRMC,175654.50,A,3737.584,N,12225.544,W,11.8,172.9,040920,,,A*69
$GPGGA,175654.60,3737.5836613,N,12225.5441768,W,1,17,1.0,42.38,M,-32.65,M,,*6E
$GPRMC,175654.60,A,3737.584,N,12225.544,W,11.9,172.5,040920,,,A*67
$GPGGA,175654.70,3737.5833322,N,12225.5441146,W,1,17,1.0,42.39,M,-32.65,M,,*66
$GPRMC,175654.70,A,3737.583,N,12225.544,W,12.0,172.3,040920,,,A*16
$GPGGA,175654.80,3737.5830020,N,12225.5440512,W,1,17,1.0,42.40,M,-32.65,M,,*61
$GPRMC,175654.80,A,3737.583,N,12225.544,W,12.0,172.1,040920,,,A*1B
$GPGGA,175654.90,3737.5826713,N,12225.5439883,W,1,17,0.9,42.42,M,-32.65,M,,*61
$GPRMC,175654.90,A,3737.583,N,12225.544,W,12.0,171.9,040920,,,A*11
$GPGGA,175655.00,3737.5823402,N,12225.5439264,W,1,17,0.9,42.43,M,-32.65,M,,*6D
$GPRMC,175655.00,A,3737.582,N,12225.544,W,12.0,171.8,040920,,,A*60
$GPGGA,175655.10,3737.5820089,N,12225.5438654,W,1,17,0.9,42.45,M,-32.65,M,,*68
$GPRMC,175655.10,A,3737.582,N,12225.544,W,12.1,171.8,040920,,,A*19
$GPGGA,175655.20,3737.5816767,N,12225.5438051,W,1,17,0.9,42.46,M,-32.65,M,,*69
$GPRMC,175655.20,A,3737.582,N,12225.544,W,12.1,171.8,040920,,,A*1A
$GPGGA,175655.30,3737.5813432,N,12225.5437456,W,1,17,0.9,42.48,M,-32.65,M,,*6C
$GPRMC,175655.30,A,3737.581,N,12225.544,W,12.1,171.8,040920,,,A*67
$GPGGA,175655.40,3737.5810087,N,12225.5436860,W,1,17,0.9,42.49,M,-32.65,M,,*6B
$GPRMC,175655.40,A,3737.581,N,12225.544,W,12.1,171.8,040920,,,A*66
$GPGGA,175655.50,3737.5806740,N,12225.5436267,W,1,17,0.9,42.50,M,-32.65,M,,*64
$GPRMC,175655.50,A,3737.581,N,12225.544,W,12.1,171.9,040920,,,A*1F
$GPGGA,175655.60,3737.5803404,N,12225.5435682,W,1,17,0.9,42.52,M,-32.65,M,,*6F
$GPRMC,175655.60,A,3737.580,N,12225.544,W,12.1,171.9,040920,,,A*64
$GPGGA,175655.70,3737.5800085,N,12225.5435108,W,1,17,0.9,42.53,M,-32.65,M,,*64
$GPRMC,175655.70,A,3737.580,N,12225.544,W,12.0,171.9,040920,,,A*1D
$GPGGA,175655.80,3737.5796793,N,12225.5434543,W,1,17,0.9,42.55,M,-32.65,M,,*67
$GPRMC,175655.80,A,3737.580,N,12225.543,W,11.9,171.9,040920,,,A*1F
$GPGGA,175655.90,3737.5793553,N,12225.5433981,W,1,17,0.9,42.56,M,-32.65,M,,*6B
$GPRMC,175655.90,A,3737.579,N,12225.543,W,11.6,171.9,040920,,,A*6E
$GPGGA,175656.00,3737.5790403,N,12225.5433432,W,1,17,0.9,42.57,M,-32.65,M,,*62
$GPRMC,175656.00,A,3737.579,N,12225.543,W,11.2,171.9,040920,,,A*19
$GPGGA,175656.10,3737.5787371,N,12225.5432905,W,1,17,0.9,42.58,M,-32.65,M,,*60
$GPRMC,175656.10,A,3737.579,N,12225.543,W,10.8,171.9,040920,,,A*13
$GPGGA,175656.20,3737.5784461,N,12225.5432408,W,1,17,0.9,42.59,M,-32.65,M,,*67
$GPRMC,175656.20,A,3737.578,N,12225.543,W,10.3,171.9,040920,,,A*1A
$GPGGA,175656.30,3737.5781672,N,12225.5431927,W,1,17,0.9,42.61,M,-32.65,M,,*6B
$GPRMC,175656.30,A,3737.578,N,12225.543,W,9.9,171.9,040920,,,A*50
$GPGGA,175656.40,3737.5778998,N,12225.5431456,W,1,17,0.9,42.63,M,-32.65,M,,*68
$GPRMC,175656.40,A,3737.578,N,12225.543,W,9.5,171.9,040920,,,A*22
$GPGGA,175656.50,3737.5776434,N,12225.5430996,W,1,17,0.9,42.64,M,-32.65,M,,*6B
$GPRMC,175656.50,A,3737.578,N,12225.543,W,9.1,171.9,040920,,,A*5E
$GPGGA,175656.60,3737.5773970,N,12225.5430553,W,1,17,0.9,42.65,M,-32.65,M,,*64
$GPRMC,175656.60,A,3737.577,N,12225.543,W,8.8,171.9,040920,,,A*23
$GPGGA,175656.70,3737.5771589,N,12225.5430130,W,1,17,0.9,42.67,M,-32.65,M,,*6E
$GPRMC,175656.70,A,3737.577,N,12225.543,W,8.5,171.9,040920,,,A*54
$GPGGA,175656.80,3737.5769281,N,12225.5429726,W,1,17,0.9,42.68,M,-32.65,M,,*61
$GPRMC,175656.80,A,3737.577,N,12225.543,W,8.3,171.9,040920,,,A*26
$GPGGA,175656.90,3737.5767036,N,12225.5429333,W,1,17,0.9,42.70,M,-32.65,M,,*69
$GPRMC,175656.90,A,3737.577,N,12225.543,W,8.1,171.9,040920,,,A*25
$GPGGA,175657.00,3737.5764843,N,12225.5428949,W,1,17,0.9,42.71,M,-32.65,M,,*6F
$GPRMC,175657.00,A,3737.576,N,12225.543,W,7.9,171.9,040920,,,A*52
$GPGGA,175657.10,3737.5762695,N,12225.5428565,W,1,17,0.9,42.72,M,-32.65,M,,*6C
$GPRMC,175657.10,A,3737.576,N,12225.543,W,7.7,171.9,040920,,,A*5B
$GPGGA,175657.20,3737.5760586,N,12225.5428183,W,1,17,0.9,42.74,M,-32.65,M,,*66
$GPRMC,175657.20,A,3737.576,N,12225.543,W,7.6,171.8,040920,,,A*27
$GPGGA,175657.30,3737.5758512,N,12225.5427805,W,1,17,0.9,42.75,M,-32.65,M,,*68
$GPRMC,175657.30,A,3737.576,N,12225.543,W,7.5,171.8,040920,,,A*25
$GPGGA,175657.40,3737.5756468,N,12225.5427429,W,1,17,0.9,42.76,M,-32.65,M,,*6C
$GPRMC,175657.40,A,3737.576,N,12225.543,W,7.4,171.8,040920,,,A*5C
$GPGGA,175657.50,3737.5754452,N,12225.5427053,W,1,17,1.0,42.78,M,-32.65,M,,*69
$GPRMC,175657.50,A,3737.575,N,12225.543,W,7.3,171.8,040920,,,A*26
$GPGGA,175657.60,3737.5752462,N,12225.5426678,W,1,17,1.0,42.79,M,-32.65,M,,*60
$GPRMC,175657.60,A,3737.575,N,12225.543,W,7.2,171.7,040920,,,A*2B
$GPGGA,175657.70,3737.5750498,N,12225.5426308,W,1,17,1.0,42.80,M,-32.65,M,,*62
$GPRMC,175657.70,A,3737.575,N,12225.543,W,7.1,171.7,040920,,,A*29
$GPGGA,175657.80,3737.5748561,N,12225.5425948,W,1,17,1.0,42.81,M,-32.65,M,,*6F
$GPRMC,175657.80,A,3737.575,N,12225.543,W,7.0,171.6,040920,,,A*5F
$GPGGA,175657.90,3737.5746648,N,12225.5425596,W,1,17,1.0,42.82,M,-32.65,M,,*64
$GPRMC,175657.90,A,3737.575,N,12225.543,W,6.9,171.6,040920,,,A*2F
$GPGGA,175658.00,3737.5744763,N,12225.5425248,W,1,16,1.0,42.84,M,-32.65,M,,*6B
$GPRMC,175658.00,A,3737.574,N,12225.543,W,6.8,171.6,040920,,,A*50
$GPGGA,175658.10,3737.5742918,N,12225.5424902,W,1,16,1.0,42.85,M,-32.65,M,,*6B
$GPRMC,175658.10,A,3737.574,N,12225.542,W,6.6,171.5,040920,,,A*5D
$GPGGA,175658.20,3737.5741112,N,12225.5424562,W,1,16,1.0,42.86,M,-32.65,M,,*60
$GPRMC,175658.20,A,3737.574,N,12225.542,W,6.5,171.5,040920,,,A*24
$GPGGA,175658.30,3737.5739350,N,12225.5424231,W,1,16,1.0,42.87,M,-32.65,M,,*6A
$GPRMC,175658.30,A,3737.574,N,12225.542,W,6.3,171.5,040920,,,A*58
$GPGGA,175658.40,3737.5737632,N,12225.5423914,W,1,16,1.0,42.88,M,-32.65,M,,*66
$GPRMC,175658.40,A,3737.574,N,12225.542,W,6.2,171.5,040920,,,A*25
$GPGGA,175658.50,3737.5735963,N,12225.5423609,W,1,16,1.0,42.89,M,-32.65,M,,*6C
$GPRMC,175658.50,A,3737.574,N,12225.542,W,6.0,171.5,040920,,,A*59
$GPGGA,175658.60,3737.5734350,N,12225.5423302,W,1,16,1.0,42.90,M,-32.65,M,,*62
$GPRMC,175658.60,A,3737.573,N,12225.542,W,5.8,171.5,040920,,,A*29
$GPGGA,175658.70,3737.5732791,N,12225.5422999,W,1,16,1.0,42.91,M,-32.65,M,,*64
$GPRMC,175658.70,A,3737.573,N,12225.542,W,5.6,171.4,040920,,,A*27
$GPGGA,175658.80,3737.5731289,N,12225.5422707,W,1,16,1.0,42.92,M,-32.65,M,,*6E
$GPRMC,175658.80,A,3737.573,N,12225.542,W,5.4,171.4,040920,,,A*51
$GPGGA,175658.90,3737.5729843,N,12225.5422420,W,1,16,1.0,42.92,M,-32.65,M,,*6C
$GPRMC,175658.90,A,3737.573,N,12225.542,W,5.2,171.3,040920,,,A*55
$GPGGA,175659.00,3737.5728444,N,12225.5422135,W,1,16,1.0,42.93,M,-32.65,M,,*6E
$GPRMC,175659.00,A,3737.573,N,12225.542,W,5.0,171.2,040920,,,A*5A
$GPGGA,175659.10,3737.5727095,N,12225.5421854,W,1,16,1.0,42.94,M,-32.65,M,,*62
$GPRMC,175659.10,A,3737.573,N,12225.542,W,4.8,171.1,040920,,,A*2A
$GPGGA,175659.20,3737.5725792,N,12225.5421581,W,1,16,1.0,42.95,M,-32.65,M,,*67
$GPRMC,175659.20,A,3737.573,N,12225.542,W,4.7,171.0,040920,,,A*27
$GPGGA,175659.30,3737.5724535,N,12225.5421312,W,1,16,1.0,42.95,M,-32.65,M,,*64
$GPRMC,175659.30,A,3737.572,N,12225.542,W,4.5,170.9,040920,,,A*2D
$GPGGA,175659.40,3737.5723313,N,12225.5421054,W,1,16,1.0,42.96,M,-32.65,M,,*64
$GPRMC,175659.40,A,3737.572,N,12225.542,W,4.4,170.9,040920,,,A*2B
$GPGGA,175659.50,3737.5722113,N,12225.5420806,W,1,16,1.0,42.97,M,-32.65,M,,*69
$GPRMC,175659.50,A,3737.572,N,12225.542,W,4.3,170.8,040920,,,A*2C
$GPGGA,175659.60,3737.5720931,N,12225.5420566,W,1,16,1.0,42.98,M,-32.65,M,,*64
$GPRMC,175659.60,A,3737.572,N,12225.542,W,4.3,170.8,040920,,,A*2F
$GPGGA,175659.70,3737.5719757,N,12225.5420327,W,1,16,1.0,42.98,M,-32.65,M,,*62
$GPRMC,175659.70,A,3737.572,N,12225.542,W,4.3,170.8,040920,,,A*2E
$GPGGA,175659.80,3737.5718587,N,12225.5420086,W,1,16,1.0,42.99,M,-32.65,M,,*6A
$GPRMC,175659.80,A,3737.572,N,12225.542,W,4.3,170.8,040920,,,A*5A
$GPGGA,175659.90,3737.5717417,N,12225.5419849,W,1,16,1.0,43.00,M,-32.65,M,,*6C
$GPRMC,175659.90,A,3737.572,N,12225.542,W,4.3,170.8,040920,,,A*5F
$GPGGA,175700.00,3737.5716248,N,12225.5419620,W,1,16,1.0,43.01,M,-32.65,M,,*65
$GPRMC,175700.00,A,3737.572,N,12225.542,W,4.3,170.8,040920,,,A*24
$GPGGA,175700.10,3737.5715079,N,12225.5419394,W,1,16,1.0,43.02,M,-32.65,M,,*6E
$GPRMC,175700.10,A,3737.572,N,12225.542,W,4.3,170.8,040920,,,A*5E
$GPGGA,175700.20,3737.5713912,N,12225.5419168,W,1,16,1.0,43.02,M,-32.65,M,,*6E
$GPRMC,175700.20,A,3737.571,N,12225.542,W,4.2,170.9,040920,,,A*5E
$GPGGA,175700.30,3737.5712748,N,12225.5418943,W,1,16,1.0,43.03,M,-32.65,M,,*6E
$GPRMC,175700.30,A,3737.571,N,12225.542,W,4.2,170.9,040920,,,A*5F
$GPGGA,175700.40,3737.5711588,N,12225.5418719,W,1,16,1.0,43.04,M,-32.65,M,,*62
$GPRMC,175700.40,A,3737.571,N,12225.542,W,4.2,170.9,040920,,,A*23
$GPGGA,175700.50,3737.5710426,N,12225.5418497,W,1,16,1.0,43.04,M,-32.65,M,,*62
$GPRMC,175700.50,A,3737.571,N,12225.542,W,4.2,171.0,040920,,,A*2A
$GPGGA,175700.60,3737.5709264,N,12225.5418275,W,1,16,1.0,43.05,M,-32.65,M,,*62
$GPRMC,175700.60,A,3737.571,N,12225.542,W,4.2,171.0,040920,,,A*29
$GPGGA,175700.70,3737.5708104,N,12225.5418055,W,1,16,1.0,43.06,M,-32.65,M,,*64
$GPRMC,175700.70,A,3737.571,N,12225.542,W,4.2,171.0,040920,,,A*28
$GPGGA,175700.80,3737.5706943,N,12225.5417834,W,1,16,1.0,43.06,M,-32.65,M,,*6E
$GPRMC,175700.80,A,3737.571,N,12225.542,W,4.2,171.0,040920,,,A*5C
$GPGGA,175700.90,3737.5705781,N,12225.5417613,W,1,16,1.0,43.07,M,-32.65,M,,*66
$GPRMC,175700.90,A,3737.571,N,12225.542,W,4.2,171.1,040920,,,A*27
$GPGGA,175701.00,3737.5704617,N,12225.5417390,W,1,16,1.0,43.08,M,-32.65,M,,*60
$GPRMC,175701.00,A,3737.570,N,12225.542,W,4.2,171.1,040920,,,A*2E
$GPGGA,175701.10,3737.5703455,N,12225.5417169,W,1,16,1.0,43.08,M,-32.65,M,,*66
$GPRMC,175701.10,A,3737.570,N,12225.542,W,4.2,171.1,040920,,,A*2F
$GPGGA,175701.20,3737.5702294,N,12225.5416950,W,1,16,1.0,43.09,M,-32.65,M,,*6D
$GPRMC,175701.20,A,3737.570,N,12225.542,W,4.2,171.1,040920,,,A*55
$GPGGA,175701.30,3737.5701136,N,12225.5416728,W,1,16,1.0,43.10,M,-32.65,M,,*6D
$GPRMC,175701.30,A,3737.570,N,12225.542,W,4.2,171.2,040920,,,A*57
$GPGGA,175701.40,3737.5699979,N,12225.5416506,W,1,16,1.0,43.11,M,-32.65,M,,*66
$GPRMC,175701.40,A,3737.570,N,12225.542,W,4.2,171.2,040920,,,A*29
$GPGGA,175701.50,3737.5698823,N,12225.5416290,W,1,16,1.0,43.11,M,-32.65,M,,*60
$GPRMC,175701.50,A,3737.570,N,12225.542,W,4.2,171.2,040920,,,A*28
$GPGGA,175701.60,3737.5697667,N,12225.5416077,W,1,16,1.0,43.12,M,-32.65,M,,*6A
$GPRMC,175701.60,A,3737.570,N,12225.542,W,4.2,171.3,040920,,,A*51
$GPGGA,175701.70,3737.5696520,N,12225.5415861,W,1,16,1.0,43.13,M,-32.65,M,,*67
$GPRMC,175701.70,A,3737.570,N,12225.542,W,4.1,171.3,040920,,,A*28
$GPGGA,175701.80,3737.5695388,N,12225.5415646,W,1,16,1.0,43.14,M,-32.65,M,,*63
$GPRMC,175701.80,A,3737.570,N,12225.542,W,4.1,171.3,040920,,,A*27
$GPGGA,175701.90,3737.5694283,N,12225.5415438,W,1,16,1.0,43.14,M,-32.65,M,,*62
$GPRMC,175701.90,A,3737.569,N,12225.542,W,4.0,171.3,040920,,,A*2F
$GPGGA,175702.00,3737.5693208,N,12225.5415237,W,1,16,1.0,43.15,M,-32.65,M,,*64
$GPRMC,175702.00,A,3737.569,N,12225.542,W,3.9,171.3,040920,,,A*2B
$GPGGA,175702.10,3737.5692165,N,12225.5415040,W,1,16,1.0,43.16,M,-32.65,M,,*6D
$GPRMC,175702.10,A,3737.569,N,12225.542,W,3.7,171.3,040920,,,A*5D
$GPGGA,175702.20,3737.5691156,N,12225.5414851,W,1,16,1.0,43.16,M,-32.65,M,,*64
$GPRMC,175702.20,A,3737.569,N,12225.541,W,3.6,171.4,040920,,,A*22
$GPGGA,175702.30,3737.5690184,N,12225.5414670,W,1,16,1.0,43.17,M,-32.65,M,,*67
$GPRMC,175702.30,A,3737.569,N,12225.541,W,3.5,171.4,040920,,,A*20
$GPGGA,175702.40,3737.5689251,N,12225.5414492,W,1,16,1.0,43.18,M,-32.65,M,,*62
$GPRMC,175702.40,A,3737.569,N,12225.541,W,3.3,171.4,040920,,,A*21
$GPGGA,175702.50,3737.5688358,N,12225.5414319,W,1,16,1.0,43.18,M,-32.65,M,,*6E
$GPRMC,175702.50,A,3737.569,N,12225.541,W,3.2,171.4,040920,,,A*5A
$GPGGA,175702.60,3737.5687505,N,12225.5414155,W,1,16,1.0,43.19,M,-32.65,M,,*67
$GPRMC,175702.60,A,3737.569,N,12225.541,W,3.0,171.4,040920,,,A*20
$GPGGA,175702.70,3737.5686692,N,12225.5414001,W,1,16,1.0,43.19,M,-32.65,M,,*6A
$GPRMC,175702.70,A,3737.569,N,12225.541,W,2.9,171.4,040920,,,A*52
$GPGGA,175702.80,3737.5685919,N,12225.5413855,W,1,16,1.0,43.20,M,-32.65,M,,*6E
$GPRMC,175702.80,A,3737.569,N,12225.541,W,2.7,171.4,040920,,,A*53
$GPGGA,175702.90,3737.5685191,N,12225.5413718,W,1,16,1.0,43.20,M,-32.65,M,,*61
$GPRMC,175702.90,A,3737.569,N,12225.541,W,2.6,171.4,040920,,,A*28
$GPGGA,175703.00,3737.5684510,N,12225.5413587,W,1,16,1.0,43.21,M,-32.65,M,,*60
$GPRMC,175703.00,A,3737.568,N,12225.541,W,2.4,171.4,040920,,,A*23
$GPGGA,175703.10,3737.5683874,N,12225.5413464,W,1,16,1.0,43.21,M,-32.65,M,,*65
$GPRMC,175703.10,A,3737.568,N,12225.541,W,2.2,171.4,040920,,,A*24
$GPGGA,175703.20,3737.5683283,N,12225.5413351,W,1,16,1.0,43.22,M,-32.65,M,,*66
$GPRMC,175703.20,A,3737.568,N,12225.541,W,2.1,171.4,040920,,,A*24
$GPGGA,175703.30,3737.5682739,N,12225.5413248,W,1,16,1.0,43.22,M,-32.65,M,,*6B
$GPRMC,175703.30,A,3737.568,N,12225.541,W,1.9,171.5,040920,,,A*56
$GPGGA,175703.40,3737.5682245,N,12225.5413154,W,1,16,1.0,43.22,M,-32.65,M,,*6C
$GPRMC,175703.40,A,3737.568,N,12225.541,W,1.7,171.5,040920,,,A*59
$GPGGA,175703.50,3737.5681800,N,12225.5413068,W,1,16,1.0,43.23,M,-32.65,M,,*6A
$GPRMC,175703.50,A,3737.568,N,12225.541,W,1.5,171.5,040920,,,A*5E
$GPGGA,175703.60,3737.5681404,N,12225.5412990,W,1,16,1.0,43.23,M,-32.65,M,,*6E
$GPRMC,175703.60,A,3737.568,N,12225.541,W,1.4,171.5,040920,,,A*5C
$GPGGA,175703.70,3737.5681057,N,12225.5412921,W,1,16,1.0,43.23,M,-32.65,M,,*67
$GPRMC,175703.70,A,3737.568,N,12225.541,W,1.2,171.5,040920,,,A*20
$GPGGA,175703.80,3737.5680760,N,12225.5412863,W,1,16,1.0,43.23,M,-32.65,M,,*6D
$GPRMC,175703.80,A,3737.568,N,12225.541,W,1.0,171.5,040920,,,A*54
$GPGGA,175703.90,3737.5680511,N,12225.5412815,W,1,16,1.0,43.24,M,-32.65,M,,*6E
$GPRMC,175703.90,A,3737.568,N,12225.541,W,0.8,171.5,040920,,,A*5E
$GPGGA,175704.00,3737.5680311,N,12225.5412775,W,1,16,1.0,43.24,M,-32.65,M,,*6F
$GPRMC,175704.00,A,3737.568,N,12225.541,W,0.6,171.5,040920,,,A*5C
$GPGGA,175704.10,3737.5680158,N,12225.5412745,W,1,16,1.0,43.24,M,-32.65,M,,*62
$GPRMC,175704.10,A,3737.568,N,12225.541,W,0.5,171.5,040920,,,A*27
$GPGGA,175704.20,3737.5680051,N,12225.5412723,W,1,16,1.0,43.24,M,-32.65,M,,*69
$GPRMC,175704.20,A,3737.568,N,12225.541,W,0.3,171.5,040920,,,A*22
$GPGGA,175704.30,3737.5679992,N,12225.5412710,W,1,16,1.0,43.24,M,-32.65,M,,*68
$GPRMC,175704.30,A,3737.568,N,12225.541,W,0.1,171.5,040920,,,A*21
$GPGGA,175704.40,3737.5679981,N,12225.5412707,W,1,16,1.0,43.24,M,-32.65,M,,*6B
$GPRMC,175704.40,A,3737.568,N,12225.541,W,0.0,171.5,040920,,,A*5E
$GPGGA,175704.50,3737.5680007,N,12225.5412710,W,1,16,1.0,43.24,M,-32.65,M,,*6D
$GPRMC,175704.50,A,3737.568,N,12225.541,W,0.1,171.5,040920,,,A*5E
$GPGGA,175704.60,3737.5680030,N,12225.5412712,W,1,16,1.0,43.24,M,-32.65,M,,*68
$GPRMC,175704.60,A,3737.568,N,12225.541,W,0.0,171.5,040920,,,A*25
$GPGGA,175704.70,3737.5680030,N,12225.5412709,W,1,16,1.0,43.24,M,-32.65,M,,*63
$GPRMC,175704.70,A,3737.568,N,12225.541,W,0.0,171.5,040920,,,A*24
$GPGGA,175704.80,3737.5680023,N,12225.5412707,W,1,16,1.0,43.24,M,-32.65,M,,*60
$GPRMC,175704.80,A,3737.568,N,12225.541,W,0.0,171.5,040920,,,A*2B
$GPGGA,175704.90,3737.5680023,N,12225.5412706,W,1,16,1.0,43.24,M,-32.65,M,,*60
$GPRMC,175704.90,A,3737.568,N,12225.541,W,0.0,171.5,040920,,,A*2A
$GPGGA,175705.00,3737.5680027,N,12225.5412705,W,1,16,1.0,43.24,M,-32.65,M,,*6F
$GPRMC,175705.00,A,3737.568,N,12225.541,W,0.0,171.5,040920,,,A*5B
$GPGGA,175705.10,3737.5680029,N,12225.5412704,W,1,16,1.0,43.24,M,-32.65,M,,*61
$GPRMC,175705.10,A,3737.568,N,12225.541,W,0.0,171.5,040920,,,A*23
$GPGGA,175705.20,3737.5680029,N,12225.5412702,W,1,16,1.0,43.24,M,-32.65,M,,*64
$GPRMC,175705.20,A,3737.568,N,12225.541,W,0.0,171.5,040920,,,A*20
$GPGGA,175705.30,3737.5680030,N,12225.5412701,W,1,16,1.0,43.24,M,-32.65,M,,*6E
$GPRMC,175705.30,A,3737.568,N,12225.541,W,0.0,171.5,040920,,,A*5A
$GPGGA,175705.40,3737.5680033,N,12225.5412700,W,1,16,1.0,43.24,M,-32.65,M,,*6B
$GPRMC,175705.40,A,3737.568,N,12225.541,W,0.0,171.5,040920,,,A*5F
$GPGGA,175705.50,3737.5680035,N,12225.5412698,W,1,16,1.0,43.24,M,-32.65,M,,*6C
$GPRMC,175705.50,A,3737.568,N,12225.541,W,0.0,171.5,040920,,,A*58
$GPGGA,175705.60,3737.5680035,N,12225.5412697,W,1,16,1.0,43.24,M,-32.65,M,,*60
$GPRMC,175705.60,A,3737.568,N,12225.541,W,0.0,171.5,040920,,,A*24
$GPGGA,175705.70,3737.5680037,N,12225.5412695,W,1,16,1.0,43.24,M,-32.65,M,,*61
$GPRMC,175705.70,A,3737.568,N,12225.541,W,0.0,171.5,040920,,,A*25
$GPGGA,175705.80,3737.5680039,N,12225.5412694,W,1,16,1.0,43.24,M,-32.65,M,,*61
$GPRMC,175705.80,A,3737.568,N,12225.541,W,0.0,171.5,040920,,,A*2A
$GPGGA,175705.90,3737.5680041,N,12225.5412692,W,1,16,1.0,43.24,M,-32.65,M,,*69
$GPRMC,175705.90,A,3737.568,N,12225.541,W,0.0,171.5,040920,,,A*2B
$GPGGA,175706.00,3737.5680042,N,12225.5412690,W,1,16,1.0,43.24,M,-32.65,M,,*62
$GPRMC,175706.00,A,3737.568,N,12225.541,W,0.0,171.5,040920,,,A*21
$GPGGA,175706.10,3737.5680043,N,12225.5412689,W,1,16,1.0,43.24,M,-32.65,M,,*6A
$GPRMC,175706.10,A,3737.568,N,12225.541,W,0.0,171.5,040920,,,A*5B
$GPGGA,175706.20,3737.5680047,N,12225.5412688,W,1,16,1.0,43.24,M,-32.65,M,,*6C
$GPRMC,175706.20,A,3737.568,N,12225.541,W,0.0,171.5,040920,,,A*5C
$GPGGA,175706.30,3737.5680051,N,12225.5412686,W,1,16,1.0,43.24,M,-32.65,M,,*64
$GPRMC,175706.30,A,3737.568,N,12225.541,W,0.0,171.5,040920,,,A*22
$GPGGA,175706.40,3737.5680054,N,12225.5412684,W,1,16,1.0,43.24,M,-32.65,M,,*64
$GPRMC,175706.40,A,3737.568,N,12225.541,W,0.0,171.5,040920,,,A*25
$GPGGA,175706.50,3737.5680055,N,12225.5412683,W,1,16,1.0,43.24,M,-32.65,M,,*63
$GPRMC,175706.50,A,3737.568,N,12225.541,W,0.0,171.5,040920,,,A*24
$GPGGA,175706.60,3737.5680055,N,12225.5412683,W,1,16,1.0,43.24,M,-32.65,M,,*60
$GPRMC,175706.60,A,3737.568,N,12225.541,W,0.0,171.5,040920,,,A*27
$GPGGA,175706.70,3737.5680055,N,12225.5412683,W,1,16,1.0,43.24,M,-32.65,M,,*61
$GPRMC,175706.70,A,3737.568,N,12225.541,W,0.0,171.5,040920,,,A*26
$GPGGA,175706.80,3737.5680054,N,12225.5412682,W,1,16,1.0,43.24,M,-32.65,M,,*6E
$GPRMC,175706.80,A,3737.568,N,12225.541,W,0.0,171.5,040920,,,A*52
$GPGGA,175706.90,3737.5680054,N,12225.5412681,W,1,16,1.0,43.24,M,-32.65,M,,*6C
$GPRMC,175706.90,A,3737.568,N,12225.541,W,0.0,171.5,040920,,,A*57
$GPGGA,175707.00,3737.5680055,N,12225.5412681,W,1,16,1.0,43.24,M,-32.65,M,,*65
$GPRMC,175707.00,A,3737.568,N,12225.541,W,0.0,171.5,040920,,,A*20
$GPGGA,175707.10,3737.5680057,N,12225.5412680,W,1,16,1.0,43.24,M,-32.65,M,,*67
$GPRMC,175707.10,A,3737.568,N,12225.541,W,0.0,171.5,040920,,,A*21
$GPGGA,175707.20,3737.5680055,N,12225.5412677,W,1,16,1.0,43.24,M,-32.65,M,,*6E
$GPRMC,175707.20,A,3737.568,N,12225.541,W,0.0,171.5,040920,,,A*59
$GPGGA,175707.30,3737.5680051,N,12225.5412674,W,1,16,1.0,43.24,M,-32.65,M,,*68
$GPRMC,175707.30,A,3737.568,N,12225.541,W,0.0,171.5,040920,,,A*23
$GPGGA,175707.40,3737.5680045,N,12225.5412671,W,1,16,1.0,43.24,M,-32.65,M,,*6F
$GPRMC,175707.40,A,3737.568,N,12225.541,W,0.0,171.5,040920,,,A*5D
$GPGGA,175707.50,3737.5680038,N,12225.5412667,W,1,16,1.0,43.24,M,-32.65,M,,*63
$GPRMC,175707.50,A,3737.568,N,12225.541,W,0.0,171.5,040920,,,A*25
$GPGGA,175707.60,3737.5680030,N,12225.5412663,W,1,16,1.0,43.24,M,-32.65,M,,*6C
$GPRMC,175707.60,A,3737.568,N,12225.541,W,0.0,171.5,040920,,,A*59
$GPGGA,175707.70,3737.5680022,N,12225.5412659,W,1,16,1.0,43.24,M,-32.65,M,,*67
$GPRMC,175707.70,A,3737.568,N,12225.541,W,0.0,171.5,040920,,,A*27
$GPGGA,175707.80,3737.5680013,N,12225.5412655,W,1,16,1.0,43.24,M,-32.65,M,,*66
$GPRMC,175707.80,A,3737.568,N,12225.541,W,0.0,171.5,040920,,,A*28
$GPGGA,175707.90,3737.5679997,N,12225.5412650,W,1,16,1.0,43.24,M,-32.65,M,,*61
$GPRMC,175707.90,A,3737.568,N,12225.541,W,0.1,171.5,040920,,,A*28
$GPGGA,175708.00,3737.5679966,N,12225.5412642,W,1,16,1.0,43.24,M,-32.65,M,,*6A
$GPRMC,175708.00,A,3737.568,N,12225.541,W,0.2,171.5,040920,,,A*56
$GPGGA,175708.10,3737.5679914,N,12225.5412630,W,1,16,1.0,43.24,M,-32.65,M,,*6B
$GPRMC,175708.10,A,3737.568,N,12225.541,W,0.2,171.5,040920,,,A*55
$GPGGA,175708.20,3737.5679838,N,12225.5412614,W,1,16,1.0,43.24,M,-32.65,M,,*61
$GPRMC,175708.20,A,3737.568,N,12225.541,W,0.3,171.5,040920,,,A*2E
$GPGGA,175708.30,3737.5679738,N,12225.5412593,W,1,16,1.0,43.24,M,-32.65,M,,*63
$GPRMC,175708.30,A,3737.568,N,12225.541,W,0.4,171.5,040920,,,A*28
$GPGGA,175708.40,3737.5679612,N,12225.5412568,W,1,16,1.0,43.24,M,-32.65,M,,*69
$GPRMC,175708.40,A,3737.568,N,12225.541,W,0.5,171.5,040920,,,A*2E
$GPGGA,175708.50,3737.5679456,N,12225.5412536,W,1,16,1.0,43.25,M,-32.65,M,,*60
$GPRMC,175708.50,A,3737.568,N,12225.541,W,0.6,171.5,040920,,,A*2C
$GPGGA,175708.60,3737.5679271,N,12225.5412500,W,1,16,1.0,43.25,M,-32.65,M,,*65
$GPRMC,175708.60,A,3737.568,N,12225.541,W,0.7,171.5,040920,,,A*2E
$GPGGA,175708.70,3737.5679064,N,12225.5412459,W,1,16,1.0,43.25,M,-32.65,M,,*6F
$GPRMC,175708.70,A,3737.568,N,12225.541,W,0.8,171.5,040920,,,A*59
$GPGGA,175708.80,3737.5678837,N,12225.5412416,W,1,16,1.0,43.25,M,-32.65,M,,*64
$GPRMC,175708.80,A,3737.568,N,12225.541,W,0.9,171.5,040920,,,A*2E
$GPGGA,175708.90,3737.5678588,N,12225.5412368,W,1,16,1.0,43.25,M,-32.65,M,,*62
$GPRMC,175708.90,A,3737.568,N,12225.541,W,0.9,171.5,040920,,,A*2F
$GPGGA,175709.00,3737.5678317,N,12225.5412315,W,1,16,1.0,43.26,M,-32.65,M,,*63
$GPRMC,175709.00,A,3737.568,N,12225.541,W,1.0,171.5,040920,,,A*2F
$GPGGA,175709.10,3737.5678026,N,12225.5412258,W,1,16,1.0,43.26,M,-32.65,M,,*6B
$GPRMC,175709.10,A,3737.568,N,12225.541,W,1.1,171.5,040920,,,A*56
$GPGGA,175709.20,3737.5677715,N,12225.5412197,W,1,16,1.0,43.26,M,-32.65,M,,*60
$GPRMC,175709.20,A,3737.568,N,12225.541,W,1.2,171.5,040920,,,A*2F
$GPGGA,175709.30,3737.5677382,N,12225.5412130,W,1,16,1.0,43.26,M,-32.65,M,,*66
$GPRMC,175709.30,A,3737.568,N,12225.541,W,1.3,171.5,040920,,,A*2F
$GPGGA,175709.40,3737.5677021,N,12225.5412056,W,1,16,1.0,43.27,M,-32.65,M,,*6B
$GPRMC,175709.40,A,3737.568,N,12225.541,W,1.4,171.5,040920,,,A*56
$GPGGA,175709.50,3737.5676620,N,12225.5411977,W,1,16,1.0,43.27,M,-32.65,M,,*65
$GPRMC,175709.50,A,3737.568,N,12225.541,W,1.6,171.5,040920,,,A*2C
$GPGGA,175709.60,3737.5676164,N,12225.5411890,W,1,16,1.0,43.28,M,-32.65,M,,*66
$GPRMC,175709.60,A,3737.568,N,12225.541,W,1.8,171.5,040920,,,A*21
$GPGGA,175709.70,3737.5675640,N,12225.5411792,W,1,16,1.0,43.28,M,-32.65,M,,*68
$GPRMC,175709.70,A,3737.568,N,12225.541,W,2.1,171.5,040920,,,A*2A
$GPGGA,175709.80,3737.5675039,N,12225.5411680,W,1,16,1.0,43.29,M,-32.65,M,,*6C
$GPRMC,175709.80,A,3737.568,N,12225.541,W,2.3,171.5,040920,,,A*58
$GPGGA,175709.90,3737.5674356,N,12225.5411547,W,1,16,1.0,43.29,M,-32.65,M,,*6E
$GPRMC,175709.90,A,3737.567,N,12225.541,W,2.6,171.5,040920,,,A*57
$GPGGA,175710.00,3737.5673592,N,12225.5411390,W,1,16,1.0,43.30,M,-32.65,M,,*62
$GPRMC,175710.00,A,3737.567,N,12225.541,W,2.9,171.5,040920,,,A*22
$GPGGA,175710.10,3737.5672746,N,12225.5411204,W,1,16,1.0,43.30,M,-32.65,M,,*65
$GPRMC,175710.10,A,3737.567,N,12225.541,W,3.2,171.4,040920,,,A*28
$GPGGA,175710.20,3737.5671823,N,12225.5410999,W,1,16,1.0,43.31,M,-32.65,M,,*66
$GPRMC,175710.20,A,3737.567,N,12225.541,W,3.5,171.3,040920,,,A*2B
$GPGGA,175710.30,3737.5670826,N,12225.5410778,W,1,16,1.0,43.31,M,-32.65,M,,*62
$GPRMC,175710.30,A,3737.567,N,12225.541,W,3.8,171.2,040920,,,A*26
$GPGGA,175710.40,3737.5669757,N,12225.5410537,W,1,16,1.0,43.32,M,-32.65,M,,*6E
$GPRMC,175710.40,A,3737.567,N,12225.541,W,4.0,171.1,040920,,,A*56
$GPGGA,175710.50,3737.5668617,N,12225.5410268,W,1,16,1.0,43.33,M,-32.65,M,,*67
$GPRMC,175710.50,A,3737.567,N,12225.541,W,4.3,170.9,040920,,,A*26
$GPGGA,175710.60,3737.5667416,N,12225.5409973,W,1,16,1.0,43.34,M,-32.65,M,,*66
$GPRMC,175710.60,A,3737.567,N,12225.541,W,4.5,170.8,040920,,,A*22
$GPGGA,175710.70,3737.5666160,N,12225.5409656,W,1,16,1.0,43.35,M,-32.65,M,,*6B
$GPRMC,175710.70,A,3737.567,N,12225.541,W,4.7,170.6,040920,,,A*56
$GPGGA,175710.80,3737.5664843,N,12225.5409324,W,1,16,1.0,43.36,M,-32.65,M,,*6D
$GPRMC,175710.80,A,3737.566,N,12225.541,W,4.9,170.4,040920,,,A*54
$GPGGA,175710.90,3737.5663459,N,12225.5408971,W,1,16,1.0,43.37,M,-32.65,M,,*66
$GPRMC,175710.90,A,3737.566,N,12225.541,W,5.2,170.2,040920,,,A*20
$GPGGA,175711.00,3737.5662006,N,12225.5408607,W,1,16,1.0,43.38,M,-32.65,M,,*60
$GPRMC,175711.00,A,3737.566,N,12225.541,W,5.5,170.1,040920,,,A*2C
$GPGGA,175711.10,3737.5660478,N,12225.5408245,W,1,17,1.0,43.40,M,-32.65,M,,*62
$GPRMC,175711.10,A,3737.566,N,12225.541,W,5.7,170.0,040920,,,A*2E
$GPGGA,175711.20,3737.5658876,N,12225.5407884,W,1,17,1.0,43.41,M,-32.65,M,,*61
$GPRMC,175711.20,A,3737.566,N,12225.541,W,6.0,169.9,040920,,,A*28
$GPGGA,175711.30,3737.5657200,N,12225.5407519,W,1,17,1.0,43.42,M,-32.65,M,,*6E
$GPRMC,175711.30,A,3737.566,N,12225.541,W,6.3,169.9,040920,,,A*51
$GPGGA,175711.40,3737.5655454,N,12225.5407134,W,1,17,1.0,43.43,M,-32.65,M,,*66
$GPRMC,175711.40,A,3737.566,N,12225.541,W,6.5,169.9,040920,,,A*2B
$GPGGA,175711.50,3737.5653635,N,12225.5406720,W,1,17,1.0,43.44,M,-32.65,M,,*61
$GPRMC,175711.50,A,3737.565,N,12225.541,W,6.8,169.8,040920,,,A*25
$GPGGA,175711.60,3737.5651741,N,12225.5406279,W,1,17,1.0,43.46,M,-32.65,M,,*69
$GPRMC,175711.60,A,3737.565,N,12225.541,W,7.0,169.8,040920,,,A*2F
$GPGGA,175711.70,3737.5649780,N,12225.5405822,W,1,17,1.0,43.47,M,-32.65,M,,*6A
$GPRMC,175711.70,A,3737.565,N,12225.541,W,7.3,169.8,040920,,,A*56
$GPGGA,175711.80,3737.5647765,N,12225.5405361,W,1,17,1.0,43.49,M,-32.65,M,,*62
$GPRMC,175711.80,A,3737.565,N,12225.541,W,7.4,169.8,040920,,,A*25
$GPGGA,175711.90,3737.5645705,N,12225.5404900,W,1,17,1.0,43.50,M,-32.65,M,,*63
$GPRMC,175711.90,A,3737.565,N,12225.540,W,7.5,169.8,040920,,,A*24
$GPGGA,175712.00,3737.5643621,N,12225.5404441,W,1,16,1.0,43.51,M,-32.65,M,,*60
$GPRMC,175712.00,A,3737.564,N,12225.540,W,7.6,169.8,040920,,,A*2C
$GPGGA,175712.10,3737.5641529,N,12225.5403986,W,1,16,1.0,43.52,M,-32.65,M,,*6A
$GPRMC,175712.10,A,3737.564,N,12225.540,W,7.6,169.8,040920,,,A*56
$GPGGA,175712.20,3737.5639442,N,12225.5403522,W,1,16,1.0,43.54,M,-32.65,M,,*6E
$GPRMC,175712.20,A,3737.564,N,12225.540,W,7.6,169.8,040920,,,A*55
$GPGGA,175712.30,3737.5637366,N,12225.5403042,W,1,16,1.0,43.55,M,-32.65,M,,*62
$GPRMC,175712.30,A,3737.564,N,12225.540,W,7.5,169.8,040920,,,A*2C
$GPGGA,175712.40,3737.5635305,N,12225.5402566,W,1,16,1.0,43.57,M,-32.65,M,,*62
$GPRMC,175712.40,A,3737.564,N,12225.540,W,7.5,169.8,040920,,,A*2B
$GPGGA,175712.50,3737.5633257,N,12225.5402103,W,1,16,1.0,43.58,M,-32.65,M,,*6B
$GPRMC,175712.50,A,3737.563,N,12225.540,W,7.4,169.8,040920,,,A*55
$GPGGA,175712.60,3737.5631231,N,12225.5401659,W,1,16,1.0,43.59,M,-32.65,M,,*60
$GPRMC,175712.60,A,3737.563,N,12225.540,W,7.3,169.8,040920,,,A*28
$GPGGA,175712.70,3737.5629241,N,12225.5401236,W,1,16,1.0,43.60,M,-32.65,M,,*68
$GPRMC,175712.70,A,3737.563,N,12225.540,W,7.2,169.9,040920,,,A*29
$GPGGA,175712.80,3737.5627289,N,12225.5400827,W,1,16,1.0,43.61,M,-32.65,M,,*67
$GPRMC,175712.80,A,3737.563,N,12225.540,W,7.0,170.1,040920,,,A*24
$GPGGA,175712.90,3737.5625378,N,12225.5400442,W,1,16,1.0,43.62,M,-32.65,M,,*67
$GPRMC,175712.90,A,3737.563,N,12225.540,W,6.9,170.3,040920,,,A*2F
$GPGGA,175713.00,3737.5623509,N,12225.5400118,W,1,16,1.0,43.63,M,-32.65,M,,*62
$GPRMC,175713.00,A,3737.562,N,12225.540,W,6.7,170.7,040920,,,A*2C
$GPGGA,175713.10,3737.5621701,N,12225.5399857,W,1,16,1.0,43.64,M,-32.65,M,,*69
$GPRMC,175713.10,A,3737.562,N,12225.540,W,6.4,171.2,040920,,,A*2A
$GPGGA,175713.20,3737.5619955,N,12225.5399657,W,1,16,1.0,43.65,M,-32.65,M,,*61
$GPRMC,175713.20,A,3737.562,N,12225.540,W,6.2,171.7,040920,,,A*2A
$GPGGA,175713.30,3737.5618248,N,12225.5399542,W,1,16,1.0,43.66,M,-32.65,M,,*62
$GPRMC,175713.30,A,3737.562,N,12225.540,W,6.1,172.5,040920,,,A*29
$GPGGA,175713.40,3737.5616575,N,12225.5399478,W,1,16,1.0,43.67,M,-32.65,M,,*6B
$GPRMC,175713.40,A,3737.562,N,12225.540,W,6.0,173.2,040920,,,A*50
$GPGGA,175713.50,3737.5614930,N,12225.5399449,W,1,16,1.0,43.68,M,-32.65,M,,*68
$GPRMC,175713.50,A,3737.561,N,12225.540,W,5.9,174.1,040920,,,A*25
$GPGGA,175713.60,3737.5613304,N,12225.5399471,W,1,16,1.0,43.69,M,-32.65,M,,*6B
$GPRMC,175713.60,A,3737.561,N,12225.540,W,5.8,175.1,040920,,,A*5F
$GPGGA,175713.70,3737.5611697,N,12225.5399568,W,1,16,1.0,43.69,M,-32.65,M,,*6E
$GPRMC,175713.70,A,3737.561,N,12225.540,W,5.7,176.2,040920,,,A*53
$GPGGA,175713.80,3737.5610107,N,12225.5399768,W,1,16,1.0,43.70,M,-32.65,M,,*64
$GPRMC,175713.80,A,3737.561,N,12225.540,W,5.7,177.5,040920,,,A*21
$GPGGA,175713.90,3737.5608536,N,12225.5400062,W,1,16,1.0,43.70,M,-32.65,M,,*60
$GPRMC,175713.90,A,3737.561,N,12225.540,W,5.6,178.9,040920,,,A*22
$GPGGA,175714.00,3737.5606986,N,12225.5400411,W,1,16,1.0,43.71,M,-32.65,M,,*66
$GPRMC,175714.00,A,3737.561,N,12225.540,W,5.6,180.2,040920,,,A*20
$GPGGA,175714.10,3737.5605461,N,12225.5400791,W,1,16,1.0,43.72,M,-32.65,M,,*68
$GPRMC,175714.10,A,3737.561,N,12225.540,W,5.5,181.7,040920,,,A*26
$GPGGA,175714.20,3737.5603957,N,12225.5401225,W,1,16,1.0,43.72,M,-32.65,M,,*6E
$GPRMC,175714.20,A,3737.560,N,12225.540,W,5.5,183.2,040920,,,A*58
$GPGGA,175714.30,3737.5602474,N,12225.5401737,W,1,16,1.0,43.73,M,-32.65,M,,*65
$GPRMC,175714.30,A,3737.560,N,12225.540,W,5.4,184.9,040920,,,A*2F
$GPGGA,175714.40,3737.5601016,N,12225.5402336,W,1,16,1.0,43.73,M,-32.65,M,,*67
$GPRMC,175714.40,A,3737.560,N,12225.540,W,5.4,186.7,040920,,,A*24
$GPGGA,175714.50,3737.5599597,N,12225.5403026,W,1,16,1.1,43.74,M,-32.65,M,,*6D
$GPRMC,175714.50,A,3737.560,N,12225.540,W,5.3,188.5,040920,,,A*57
$GPGGA,175714.60,3737.5598234,N,12225.5403803,W,1,16,1.1,43.74,M,-32.65,M,,*6E
$GPRMC,175714.60,A,3737.560,N,12225.540,W,5.2,190.6,040920,,,A*5D
$GPGGA,175714.70,3737.5596919,N,12225.5404680,W,1,16,1.1,43.75,M,-32.65,M,,*66
$GPRMC,175714.70,A,3737.560,N,12225.540,W,5.2,192.7,040920,,,A*24
$GPGGA,175714.80,3737.5595643,N,12225.5405635,W,1,16,1.1,43.76,M,-32.65,M,,*66
$GPRMC,175714.80,A,3737.560,N,12225.541,W,5.2,194.8,040920,,,A*23
$GPGGA,175714.90,3737.5594392,N,12225.5406650,W,1,16,1.2,43.78,M,-32.65,M,,*62
$GPRMC,175714.90,A,3737.559,N,12225.541,W,5.3,197.0,040920,,,A*22
$GPGGA,175715.00,3737.5593151,N,12225.5407720,W,1,14,1.2,43.79,M,-32.65,M,,*64
$GPRMC,175715.00,A,3737.559,N,12225.541,W,5.3,199.2,040920,,,A*26
$GPGGA,175715.10,3737.5591929,N,12225.5408862,W,1,14,1.2,43.80,M,-32.65,M,,*60
$GPRMC,175715.10,A,3737.559,N,12225.541,W,5.4,201.5,040920,,,A*25
$GPGGA,175715.20,3737.5590724,N,12225.5410068,W,1,14,1.2,43.80,M,-32.65,M,,*6A
$GPRMC,175715.20,A,3737.559,N,12225.541,W,5.5,203.8,040920,,,A*53
$GPGGA,175715.30,3737.5589541,N,12225.5411352,W,1,14,1.2,43.81,M,-32.65,M,,*68
$GPRMC,175715.30,A,3737.559,N,12225.541,W,5.5,206.1,040920,,,A*25
$GPGGA,175715.40,3737.5588395,N,12225.5412728,W,1,14,1.2,43.82,M,-32.65,M,,*68
$GPRMC,175715.40,A,3737.559,N,12225.541,W,5.6,208.4,040920,,,A*2A
$GPGGA,175715.50,3737.5587302,N,12225.5414194,W,1,14,1.2,43.82,M,-32.65,M,,*6F
$GPRMC,175715.50,A,3737.559,N,12225.541,W,5.6,210.8,040920,,,A*57
$GPGGA,175715.60,3737.5586278,N,12225.5415751,W,1,14,1.2,43.83,M,-32.65,M,,*6E
$GPRMC,175715.60,A,3737.559,N,12225.542,W,5.6,213.1,040920,,,A*5F
$GPGGA,175715.70,3737.5585315,N,12225.5417345,W,1,14,1.2,43.84,M,-32.65,M,,*62
$GPRMC,175715.70,A,3737.559,N,12225.542,W,5.5,215.5,040920,,,A*24
$GPGGA,175715.80,3737.5584380,N,12225.5418962,W,1,14,1.2,43.85,M,-32.65,M,,*61
$GPRMC,175715.80,A,3737.558,N,12225.542,W,5.5,218.0,040920,,,A*22
$GPGGA,175715.90,3737.5583480,N,12225.5420611,W,1,14,1.2,43.86,M,-32.65,M,,*63
$GPRMC,175715.90,A,3737.558,N,12225.542,W,5.5,220.4,040920,,,A*2C
$GPGGA,175716.00,3737.5582633,N,12225.5422279,W,1,13,1.2,43.86,M,-32.65,M,,*6D
$GPRMC,175716.00,A,3737.558,N,12225.542,W,5.5,222.7,040920,,,A*5E
$GPGGA,175716.10,3737.5581840,N,12225.5423975,W,1,13,1.2,43.87,M,-32.65,M,,*62
$GPRMC,175716.10,A,3737.558,N,12225.542,W,5.4,225.0,040920,,,A*27
$GPGGA,175716.20,3737.5581089,N,12225.5425666,W,1,13,1.2,43.88,M,-32.65,M,,*68
$GPRMC,175716.20,A,3737.558,N,12225.543,W,5.4,227.2,040920,,,A*25
$GPGGA,175716.30,3737.5580390,N,12225.5427371,W,1,13,1.2,43.88,M,-32.65,M,,*62
$GPRMC,175716.30,A,3737.558,N,12225.543,W,5.4,229.2,040920,,,A*2A
$GPGGA,175716.40,3737.5579754,N,12225.5429112,W,1,13,1.2,43.89,M,-32.65,M,,*67
$GPRMC,175716.40,A,3737.558,N,12225.543,W,5.3,231.3,040920,,,A*22
$GPGGA,175716.50,3737.5579168,N,12225.5430875,W,1,13,1.2,43.89,M,-32.65,M,,*6F
$GPRMC,175716.50,A,3737.558,N,12225.543,W,5.3,233.3,040920,,,A*58
$GPGGA,175716.60,3737.5578614,N,12225.5432646,W,1,13,1.2,43.90,M,-32.65,M,,*65
$GPRMC,175716.60,A,3737.558,N,12225.543,W,5.3,235.3,040920,,,A*24
$GPGGA,175716.70,3737.5578100,N,12225.5434426,W,1,13,1.2,43.90,M,-32.65,M,,*64
$GPRMC,175716.70,A,3737.558,N,12225.543,W,5.3,237.2,040920,,,A*26
$GPGGA,175716.80,3737.5577641,N,12225.5436219,W,1,13,1.2,43.90,M,-32.65,M,,*6E
$GPRMC,175716.80,A,3737.558,N,12225.544,W,5.2,239.1,040920,,,A*59
$GPGGA,175716.90,3737.5577239,N,12225.5438018,W,1,13,1.2,43.91,M,-32.65,M,,*68
$GPRMC,175716.90,A,3737.558,N,12225.544,W,5.2,240.9,040920,,,A*25
$GPGGA,175717.00,3737.5576894,N,12225.5439812,W,1,13,1.2,43.91,M,-32.65,M,,*6F
$GPRMC,175717.00,A,3737.558,N,12225.544,W,5.1,242.7,040920,,,A*5B
$GPGGA,175717.10,3737.5576585,N,12225.5441595,W,1,13,1.2,43.91,M,-32.65,M,,*6E
$GPRMC,175717.10,A,3737.558,N,12225.544,W,5.1,244.4,040920,,,A*5D
$GPGGA,175717.20,3737.5576299,N,12225.5443360,W,1,13,1.2,43.91,M,-32.65,M,,*69
$GPRMC,175717.20,A,3737.558,N,12225.544,W,5.0,246.1,040920,,,A*23
$GPGGA,175717.30,3737.5576027,N,12225.5445106,W,1,13,1.2,43.92,M,-32.65,M,,*68
